{
  "type": "FeatureCollection",
  "features": [
    {"type":"Feature","properties":{"city":"New York","name":"New School University / Parsons School Of Design","zip":"10011","url":"http://www.parsons.edu/html/splash.html","bbl":"1005760042","streetname":"FIFTH AVENUE","housenum":"66","bin":"1009619"},"geometry":{"type":"Point","coordinates":[-73.99465215457163,40.73519616365903]}},{"type":"Feature","properties":{"city":"New York","name":"New School University / The New School","zip":"10011","url":"http://www.newschool.edu/","bbl":"1005750017","streetname":"WEST 12 STREET","housenum":"66","bin":"1083136"},"geometry":{"type":"Point","coordinates":[-73.99706966379965,40.73546280987431]}},{"type":"Feature","properties":{"city":"New York","name":"Metropolitan College","zip":"10013","url":"http://www.metropolitan.edu/","bbl":"1002260001","streetname":"VARICK STREET","housenum":"75","bin":"1002934"},"geometry":{"type":"Point","coordinates":[-74.00681944352681,40.723441859057495]}},{"type":"Feature","properties":{"city":"Fresh Meadows","name":"School Of Nursing Of St. Vincents Catholic Medical Centers, The","zip":"11365","url":"http://www.svcmc.org/portal/training/allied_health.asp","bbl":"4068890037","streetname":"HORACE HARDING EXPRESSWAY","housenum":"175-05","bin":"4148794"},"geometry":{"type":"Point","coordinates":[-73.79439300079635,40.73944287003665]}},{"type":"Feature","properties":{"city":"Forest Hills","name":"Bramson Ort College","zip":"11375","url":"http://www.bramsonort.org/","bbl":"4032347501","streetname":"AUSTIN STREET","housenum":"69-30","bin":"4077468"},"geometry":{"type":"Point","coordinates":[-73.84872054010768,40.721371886956774]}},{"type":"Feature","properties":{"city":"Jamaica","name":"St. John's University / Queens Campus","zip":"11432","url":"http://www.stjohns.edu/pls/portal30/sjudev.school.adminhome","bbl":"","streetname":"UTOPIA PARKWAY","housenum":"80-00","bin":"0"},"geometry":{"type":"Point","coordinates":[-73.79169409417617,40.72560042547538]}},{"type":"Feature","properties":{"city":"East Elmhurst","name":"College Of Aeronautics, Laguardia Airport","zip":"11369","url":"http://www.aero.edu/","bbl":"4010640002","streetname":"23 AVENUE","housenum":"86-01","bin":"4437065"},"geometry":{"type":"Point","coordinates":[-73.88262668869274,40.76781246562115]}},{"type":"Feature","properties":{"city":"Staten Island","name":"Wagner College","zip":"10301","url":"http://www.wagner.edu/","bbl":"5006200001","streetname":"CAMPUS ROAD","housenum":"1","bin":"5113453"},"geometry":{"type":"Point","coordinates":[-74.09254228397026,40.61477207128726]}},{"type":"Feature","properties":{"city":"New York","name":"Fashion Institute Of Technology (Suny)","zip":"10001","url":"http://www.fitnyc.suny.edu","bbl":"","streetname":"7 AVENUE & WEST 27 STREET","housenum":"","bin":"1014252"},"geometry":{"type":"Point","coordinates":[-73.99395097259607,40.747110544796385]}},{"type":"Feature","properties":{"city":"Bronx","name":"Herbert H Lehman College (Cuny)","zip":"10468","url":"http://www.lehman.cuny.edu","bbl":"2032470165","streetname":"BEDFORD PARK BLVD WEST","housenum":"250","bin":"2097309"},"geometry":{"type":"Point","coordinates":[-73.89290953903091,40.87459002193658]}},{"type":"Feature","properties":{"city":"Bronx","name":"Eugenio Maria De Hostos Comm Coll (Cuny)","zip":"10451","url":"http://www.hostos.cuny.edu","bbl":"2023430032","streetname":"GRAND CONCOURSE","housenum":"500","bin":"2001019"},"geometry":{"type":"Point","coordinates":[-73.92693174513067,40.817826050895235]}},{"type":"Feature","properties":{"city":"Bronx","name":"Bronx Community College (Cuny)","zip":"10453","url":"http://www.bcc.cuny.edu","bbl":"2032100092","streetname":"WEST 181 STREET","housenum":"80","bin":"2014573"},"geometry":{"type":"Point","coordinates":[-73.90883250414988,40.8568141091849]}},{"type":"Feature","properties":{"city":"Brooklyn","name":"Medgar Evers College (Cuny)","zip":"11225","url":"http://www.mec.cuny.edu","bbl":"3012940001","streetname":"BEDFORD AVENUE","housenum":"1650","bin":"3034075"},"geometry":{"type":"Point","coordinates":[-73.95764418177963,40.66633782727834]}},{"type":"Feature","properties":{"city":"Brooklyn","name":"Brooklyn College (Cuny)","zip":"11210","url":"http://www.brooklyn.cuny.edu","bbl":"3075520100","streetname":"BEDFORD AVENUE","housenum":"2900","bin":"3347326"},"geometry":{"type":"Point","coordinates":[-73.95348409151686,40.63176554821801]}},{"type":"Feature","properties":{"city":"Brooklyn","name":"Nyc Technical College (Cuny)","zip":"11201","url":"http://www.nyctc.cuny.edu","bbl":"3001280001","streetname":"JAY STREET","housenum":"300","bin":"3335891"},"geometry":{"type":"Point","coordinates":[-73.98766333253079,40.69552146244829]}},{"type":"Feature","properties":{"city":"Brooklyn","name":"Health Science Center At Brooklyn (Suny)","zip":"11203","url":"http://www.hscbklyn.edu","bbl":"3048380001","streetname":"CLARKSON AVENUE","housenum":"450","bin":"3336186"},"geometry":{"type":"Point","coordinates":[-73.9449435524464,40.65507267868331]}},{"type":"Feature","properties":{"city":"New York","name":"Hunter College School Social Work (Cuny)","zip":"10021","url":"http://www.hunter.cuny.edu","bbl":"1015080012","streetname":"EAST 79 STREET","housenum":"129","bin":"1047468"},"geometry":{"type":"Point","coordinates":[-73.95911733944205,40.775351150446056]}},{"type":"Feature","properties":{"city":"New York","name":"Bernard M Baruch College (Cuny)","zip":"10010","url":"http://www.baruch.cuny.edu","bbl":"1008800024","streetname":"EAST 24 STREET","housenum":"155","bin":"1086514"},"geometry":{"type":"Point","coordinates":[-73.98339828552592,40.74021907770699]}},{"type":"Feature","properties":{"city":"New York","name":"Borough Of Manhattan Comm College (Cuny)","zip":"10013","url":"http://www.bmcc.cuny.edu","bbl":"1001420050","streetname":"CHAMBERS STREET","housenum":"199","bin":"1066406"},"geometry":{"type":"Point","coordinates":[-74.01183075983597,40.71865472056016]}},{"type":"Feature","properties":{"city":"New York","name":"Nys College Of Optometry (Suny)","zip":"10036","url":"http://www.sunyopt.edu","bbl":"1012580018","streetname":"WEST 42 STREET","housenum":"33","bin":"1034197"},"geometry":{"type":"Point","coordinates":[-73.98218892338582,40.75449402764767]}},{"type":"Feature","properties":{"city":"New York","name":"Cuny Grad School&University Center (Cuny)","zip":"10016","url":"http://www.gc.cuny.edu","bbl":"1008647502","streetname":"FIFTH AVENUE","housenum":"365","bin":"1017097"},"geometry":{"type":"Point","coordinates":[-73.98348992428072,40.74845551426779]}},{"type":"Feature","properties":{"city":"New York","name":"Baruch Grad Sch Of Politcal Management","zip":"10010","url":"http://www.baruch.cuny.edu","bbl":"1008800024","streetname":"LEXINGTON AVENUE","housenum":"55","bin":"1086514"},"geometry":{"type":"Point","coordinates":[-73.98339828552592,40.74021907770699]}},{"type":"Feature","properties":{"city":"New York","name":"Hunter College (Cuny)","zip":"10021","url":"http://www.hunter.cuny.edu","bbl":"1014030001","streetname":"PARK AVENUE","housenum":"695","bin":"1081419"},"geometry":{"type":"Point","coordinates":[-73.96474222642745,40.768569446676494]}},{"type":"Feature","properties":{"city":"New York","name":"John Jay College Criminal Justice (Cuny)","zip":"10019","url":"http://www.jjay.cuny.edu","bbl":"1010870025","streetname":"10 AVENUE","housenum":"899","bin":"1027085"},"geometry":{"type":"Point","coordinates":[-73.98825336846367,40.7702792782081]}},{"type":"Feature","properties":{"city":"Oakland Gardens","name":"Queensborough Community College (Cuny)","zip":"11364","url":"http://www.qcc.cuny.edu","bbl":"4074900002","streetname":"56 AVENUE","housenum":"222-05","bin":"4444187"},"geometry":{"type":"Point","coordinates":[-73.75759790651955,40.75383842336462]}},{"type":"Feature","properties":{"city":"Long Island City","name":"Fiorello H Laguardia Comm College (Cuny)","zip":"11101","url":"http://www.lagcc.cuny.edu","bbl":"4002780001","streetname":"THOMSON AVENUE","housenum":"31-10","bin":"4003534"},"geometry":{"type":"Point","coordinates":[-73.93512379108051,40.7439956895944]}},{"type":"Feature","properties":{"city":"Flushing","name":"School Of Law At Queens College (Cuny)","zip":"11367","url":"http://web.law.cuny.edu","bbl":"4065070030","streetname":"MAIN STREET","housenum":"65-21","bin":"4141868"},"geometry":{"type":"Point","coordinates":[-73.82453915216028,40.737108318660674]}},{"type":"Feature","properties":{"city":"Flushing","name":"Queens College (Cuny)","zip":"11367","url":"http://www.qc.edu","bbl":"4065170001","streetname":"KISSENA BOULEVARD","housenum":"65-30","bin":"4141870"},"geometry":{"type":"Point","coordinates":[-73.81829898457165,40.735954805733996]}},{"type":"Feature","properties":{"city":"Flushing","name":"Queens Coll Sch Math & Science","zip":"11367","url":"http://www.qc.edu/","bbl":"4065170001","streetname":"KISSENA BOULEVARD","housenum":"65-30","bin":"4141870"},"geometry":{"type":"Point","coordinates":[-73.81829898457165,40.735954805733996]}},{"type":"Feature","properties":{"city":"Jamaica","name":"York College (Cuny)","zip":"11433","url":"http://www.york.cuny.edu","bbl":"4101040043","streetname":"GUY R BREWER BOULEVARD","housenum":"94-20","bin":"4215630"},"geometry":{"type":"Point","coordinates":[-73.79625692788854,40.70172969617277]}},{"type":"Feature","properties":{"city":"Staten Island","name":"College Of Staten Island (Cuny)","zip":"10314","url":"http://www.csi.cuny.edu","bbl":"5020400001","streetname":"VICTORY BOULEVARD","housenum":"2800","bin":"5131068"},"geometry":{"type":"Point","coordinates":[-74.14887611925316,40.60063483947812]}},{"type":"Feature","properties":{"city":"Bronx","name":"College Of New Rochelle, The / School Of New Resources/John Cardinal O?Connor Campus","zip":"10451","url":"http://www.cnr.edu/","bbl":"2023300034","streetname":"EAST 149 STREET","housenum":"332","bin":"2000898"},"geometry":{"type":"Point","coordinates":[-73.92038932251565,40.816519958982994]}},{"type":"Feature","properties":{"city":"Bronx","name":"Fordham University","zip":"10458","url":"http://www.fordham.edu/","bbl":"2032730001","streetname":"EAST FORDHAM ROAD","housenum":"441","bin":"2102025"},"geometry":{"type":"Point","coordinates":[-73.887390126939,40.86125886238194]}},{"type":"Feature","properties":{"city":"Bronx","name":"Manhattan College","zip":"10471","url":"http://www.manhattan.edu/","bbl":"2058030801","streetname":"MANHATTAN COLLEGE PARKWAY","housenum":"4513","bin":"2087584"},"geometry":{"type":"Point","coordinates":[-73.90190577626052,40.889767124763196]}},{"type":"Feature","properties":{"city":"Bronx","name":"College Of Mount St. Vincent","zip":"10471","url":"http://www.cmsv.edu/","bbl":"2059580001","streetname":"RIVERDALE AVENUE","housenum":"6301","bin":"2098636"},"geometry":{"type":"Point","coordinates":[-73.90284544181063,40.91263942581352]}},{"type":"Feature","properties":{"city":"Bronx","name":"College Of New Rochelle, The / School Of New Resources/Co-Op City Campus","zip":"10475","url":"http://www.cnr.edu/","bbl":"2051410390","streetname":"CO-OP CITY BOULEVARD","housenum":"755","bin":"2072365"},"geometry":{"type":"Point","coordinates":[-73.827002596629,40.88021177487783]}},{"type":"Feature","properties":{"city":"Brooklyn","name":"Long Island University / Brooklyn Campus","zip":"11201","url":"http://www.liu.edu/liu_start.html","bbl":"3020850001","streetname":"UNIVERSITY PLAZA","housenum":"1","bin":"3338885"},"geometry":{"type":"Point","coordinates":[-73.98129553261923,40.691699768257685]}},{"type":"Feature","properties":{"city":"Brooklyn","name":"College Of New Rochelle, The / School Of New Resources/Brooklyn Campus","zip":"11216","url":"http://www.cnr.edu/","bbl":"3018620014","streetname":"FULTON STREET","housenum":"1368","bin":"3053786"},"geometry":{"type":"Point","coordinates":[-73.9456342920531,40.6799503315382]}},{"type":"Feature","properties":{"city":"Brooklyn","name":"Institute Of Design And Construction","zip":"11201","url":"http://www.idcbrooklyn.org/","bbl":"3020600001","streetname":"WILLOUGHBY STREET","housenum":"141","bin":"3058246"},"geometry":{"type":"Point","coordinates":[-73.98308348320116,40.69230564267101]}},{"type":"Feature","properties":{"city":"Brooklyn","name":"St. Francis College","zip":"11201","url":"http://www.stfranciscollege.edu/","bbl":"3002550036","streetname":"REMSEN STREET","housenum":"180","bin":"3335934"},"geometry":{"type":"Point","coordinates":[-73.9921109815578,40.69306855757583]}},{"type":"Feature","properties":{"city":"Brooklyn","name":"Boricua College, Northside Center","zip":"11211","url":"http://www.boricuacollege.edu/","bbl":"3023360018","streetname":"NORTH 6 STREET","housenum":"186","bin":"3062216"},"geometry":{"type":"Point","coordinates":[-73.95775285303331,40.71658090096847]}},{"type":"Feature","properties":{"city":"Brooklyn","name":"Pratt Institute","zip":"11205","url":"http://www.pratt.edu/","bbl":"3019200001","streetname":"WILLOUGHBY AVENUE","housenum":"200","bin":"3334961"},"geometry":{"type":"Point","coordinates":[-73.9641713381281,40.69179151661372]}},{"type":"Feature","properties":{"city":"Brooklyn","name":"St. Joseph's College / Brooklyn Campus","zip":"11205","url":"http://www.sjcny.edu/home.html","bbl":"3019160013","streetname":"CLINTON AVENUE","housenum":"245","bin":"3332264"},"geometry":{"type":"Point","coordinates":[-73.96769005811436,40.69052201077746]}},{"type":"Feature","properties":{"city":"Brooklyn","name":"Long Island College Hospital School Of Nursing","zip":"11201","url":"http://www.albany.net/~orchard/lich.html","bbl":"3002840001","streetname":"HICKS STREET","housenum":"339","bin":"3002928"},"geometry":{"type":"Point","coordinates":[-73.99740081950995,40.69055915437317]}},{"type":"Feature","properties":{"city":"Brooklyn","name":"Polytechnic University / Brooklyn-Metrotech Campus","zip":"11201","url":"http://www.poly.edu/index_ie.cfm","bbl":"3001427501","streetname":"METROTECH CENTER","housenum":"6","bin":"3331744"},"geometry":{"type":"Point","coordinates":[-73.98565829535117,40.69463215570763]}},{"type":"Feature","properties":{"city":"Brooklyn","name":"Boricua College, Graham Center","zip":"11206","url":"http://www.boricuacollege.edu/","bbl":"3031260001","streetname":"GRAHAM AVENUE","housenum":"9","bin":"3071650"},"geometry":{"type":"Point","coordinates":[-73.94248381837252,40.701296859100935]}},{"type":"Feature","properties":{"city":"New York","name":"Pace University / New York City Campus","zip":"10038","url":"http://www.pace.edu/","bbl":"1001020001","streetname":"PACE PLAZA","housenum":"1","bin":"1001357"},"geometry":{"type":"Point","coordinates":[-74.00479825356436,40.71110496435334]}},{"type":"Feature","properties":{"city":"New York","name":"St. John's University / Manhattan Campus","zip":"10007","url":"http://www.stjohns.edu/pls/portal30/sjudev.school.adminhome","bbl":"1001420100","streetname":"MURRAY STREET","housenum":"101","bin":"1001542"},"geometry":{"type":"Point","coordinates":[-74.01263555490442,40.715434404674916]}},{"type":"Feature","properties":{"city":"New York","name":"Fordham University/Lincoln Center Campus","zip":"10023","url":"http://www.fordham.edu/","bbl":"1011320020","streetname":"WEST 60 STREET","housenum":"113","bin":"1028830"},"geometry":{"type":"Point","coordinates":[-73.98514610080309,40.770821960815844]}},{"type":"Feature","properties":{"city":"New York","name":"Columbia University","zip":"10027","url":"http://www.columbia.edu/","bbl":"1018860001","streetname":"AMSTERDAM AVENUE","housenum":"1130","bin":"1084846"},"geometry":{"type":"Point","coordinates":[-73.9616669913283,40.806815074075836]}},{"type":"Feature","properties":{"city":"New York","name":"Manhattan School Of Music","zip":"10027","url":"http://www.msmnyc.edu/","bbl":"1019930001","streetname":"CLAREMONT AVENUE","housenum":"120","bin":"1076684"},"geometry":{"type":"Point","coordinates":[-73.96148487501755,40.81239324826694]}},{"type":"Feature","properties":{"city":"New York","name":"Rockefeller University, The","zip":"10021","url":"http://www.rockefeller.edu/","bbl":"","streetname":"YORK AVENUE","housenum":"1230","bin":"0"},"geometry":{"type":"Point","coordinates":[-73.95662756289357,40.762889704137415]}},{"type":"Feature","properties":{"city":"New York","name":"College Of New Rochelle, The / School Of New Resources/District Council 37 Campus","zip":"10007","url":"http://www.cnr.edu/","bbl":"1001280026","streetname":"BARCLAY STREET","housenum":"125","bin":"1001417"},"geometry":{"type":"Point","coordinates":[-74.01295986865433,40.71458526392435]}},{"type":"Feature","properties":{"city":"New York","name":"Cornell University / Weill Medical College Of Cornell University","zip":"10021","url":"http://www.med.cornell.edu/","bbl":"1014800001","streetname":"YORK AVENUE","housenum":"1300","bin":"1084785"},"geometry":{"type":"Point","coordinates":[-73.95472938360106,40.76473776409553]}},{"type":"Feature","properties":{"city":"New York","name":"College Of New Rochelle, The / School Of New Resources/Rosa Parks Campus","zip":"10027","url":"http://www.cnr.edu/","bbl":"1019090009","streetname":"WEST 125 STREET","housenum":"144","bin":"1057819"},"geometry":{"type":"Point","coordinates":[-73.94772625973405,40.80824453429463]}},{"type":"Feature","properties":{"city":"New York","name":"New School University / Mannes College Of Music","zip":"10024","url":"http://www.mannes.edu/","bbl":"1012150053","streetname":"WEST 85 STREET","housenum":"150","bin":"1032132"},"geometry":{"type":"Point","coordinates":[-73.97466142784745,40.78642497243753]}},{"type":"Feature","properties":{"city":"New York","name":"New York School Of Interior Design","zip":"10021","url":"http://www.nysid.edu/","bbl":"1014040044","streetname":"EAST 70 STREET","housenum":"170","bin":"1042502"},"geometry":{"type":"Point","coordinates":[-73.96245272240729,40.76858064958243]}},{"type":"Feature","properties":{"city":"New York","name":"New York College Of Podiatric Medicine","zip":"10035","url":"http://www.nycpm.edu/","bbl":"1017490033","streetname":"PARK AVENUE","housenum":"1800","bin":"1081382"},"geometry":{"type":"Point","coordinates":[-73.94025622759209,40.80494109353117]}},{"type":"Feature","properties":{"city":"New York","name":"Helene Fuld College Of Nursing Of North General Hospital","zip":"10035","url":"http://www.helenefuld.edu/","bbl":"1017470035","streetname":"MADISON AVENUE","housenum":"1879","bin":"1077376"},"geometry":{"type":"Point","coordinates":[-73.94169697317783,40.80324528879269]}},{"type":"Feature","properties":{"city":"New York","name":"New York University","zip":"10011","url":"http://www.nyu.edu/","bbl":"1005510011","streetname":"WASHINGTON SQUARE NORTH","housenum":"22","bin":"1080111"},"geometry":{"type":"Point","coordinates":[-73.99787780140895,40.73207510379186]}},{"type":"Feature","properties":{"city":"New York","name":"Marymount Manhattan College","zip":"10021","url":"http://marymount.mmm.edu/","bbl":"1014260035","streetname":"EAST 71 STREET","housenum":"221","bin":"1083341"},"geometry":{"type":"Point","coordinates":[-73.95974673761155,40.76872195160445]}},{"type":"Feature","properties":{"city":"New York","name":"College Of New Rochelle, The / School Of New Resources/New York Theological Seminary Campus","zip":"10001","url":"http://www.cnr.edu/","bbl":"1007780070","streetname":"WEST 29 STREET","housenum":"252","bin":"1014271"},"geometry":{"type":"Point","coordinates":[-73.9953620336229,40.74868111655497]}},{"type":"Feature","properties":{"city":"New York","name":"Touro College","zip":"10010","url":"http://www.touro.edu/","bbl":"1008250024","streetname":"WEST 23 STREET","housenum":"27","bin":"1015580"},"geometry":{"type":"Point","coordinates":[-73.99057872656032,40.74240548177522]}},{"type":"Feature","properties":{"city":"New York","name":"Pratt Institute / Manhattan Campus","zip":"10012","url":"http://www.pratt.edu/","bbl":"1005100045","streetname":"LAFAYETTE STREET","housenum":"295","bin":"1007941"},"geometry":{"type":"Point","coordinates":[-73.99539777630206,40.724530937742024]}},{"type":"Feature","properties":{"city":"New York","name":"Cooper Union, The / For The Advancement Of Science And Art Suite 300","zip":"10003","url":"http://www.cooper.edu/","bbl":"1005440048","streetname":"COOPER SQUARE","housenum":"30","bin":"1008779"},"geometry":{"type":"Point","coordinates":[-73.99162508259106,40.72813483481943]}},{"type":"Feature","properties":{"city":"New York","name":"Barnard College","zip":"10027","url":"http://www.barnard.edu/","bbl":"1019890001","streetname":"BROADWAY","housenum":"3009","bin":"1082351"},"geometry":{"type":"Point","coordinates":[-73.96394826057096,40.80913269168725]}},{"type":"Feature","properties":{"city":"New York","name":"Jewish Theological Seminary / List College Of Jewish Studies","zip":"10027","url":"http://www.jtsa.edu/","bbl":"1019770001","streetname":"BROADWAY","housenum":"3080","bin":"1059669"},"geometry":{"type":"Point","coordinates":[-73.96001031213936,40.811801634463286]}},{"type":"Feature","properties":{"city":"New York","name":"Phillips Beth Israel School Of Nursing","zip":"10010","url":"http://wehealny.org/bischoolofnursing/index.html","bbl":"1009270055","streetname":"EAST 22 STREET","housenum":"310","bin":"1020567"},"geometry":{"type":"Point","coordinates":[-73.9810549374029,40.73686062472525]}},{"type":"Feature","properties":{"city":"New York","name":"Boricua College","zip":"10032","url":"http://www.boricuacollege.edu/","bbl":"1021340053","streetname":"BROADWAY","housenum":"3755","bin":"1063250"},"geometry":{"type":"Point","coordinates":[-73.94587880144374,40.83347318351127]}},{"type":"Feature","properties":{"city":"New York","name":"Cornell University / Weill Graduate School Of Medical Sciences Of Cornell University","zip":"10021","url":"http://www.med.cornell.edu/gradschool/","bbl":"1014640021","streetname":"EAST 69 STREET","housenum":"445","bin":"1045585"},"geometry":{"type":"Point","coordinates":[-73.9553818130165,40.76523174250826]}},{"type":"Feature","properties":{"city":"New York","name":"American Academy Mcallister Institute Of Funeral Service","zip":"10019","url":"http://www.a-a-m-i.org/","bbl":"1010650001","streetname":"WEST 56 STREET","housenum":"450","bin":"1026841"},"geometry":{"type":"Point","coordinates":[-73.98864638744395,40.767873514551425]}},{"type":"Feature","properties":{"city":"New York","name":"Yeshiva University","zip":"10033","url":"http://www.yu.edu/","bbl":"1021560016","streetname":"WEST 185 STREET","housenum":"500","bin":"1063719"},"geometry":{"type":"Point","coordinates":[-73.92980468839204,40.85053977419417]}},{"type":"Feature","properties":{"city":"New York","name":"Teachers College, Columbia University","zip":"10027","url":"http://www.tc.columbia.edu/","bbl":"1019750001","streetname":"WEST 120 STREET","housenum":"525","bin":"1083643"},"geometry":{"type":"Point","coordinates":[-73.96028717108886,40.81029418631306]}},{"type":"Feature","properties":{"city":"New York","name":"New School University / Jazz And Contemporary Music Program","zip":"10011","url":"http://www.newschool.edu/jazz/","bbl":"1005770071","streetname":"WEST 13 STREET","housenum":"55","bin":"1009722"},"geometry":{"type":"Point","coordinates":[-73.99649861360797,40.736553887838184]}},{"type":"Feature","properties":{"city":"New York","name":"Bank Street College Of Education / Graduate School Of Education","zip":"10025","url":"http://www.bankstreet.edu/","bbl":"1018940056","streetname":"WEST 112 STREET","housenum":"610","bin":"1057331"},"geometry":{"type":"Point","coordinates":[-73.9666683641188,40.80557808768119]}},{"type":"Feature","properties":{"city":"New York","name":"New School University / Eugene Lang College","zip":"10011","url":"http://www.lang.edu/","bbl":"1005750017","streetname":"WEST 11 STREET","housenum":"65","bin":"1009567"},"geometry":{"type":"Point","coordinates":[-73.99747679976271,40.73526236196918]}},{"type":"Feature","properties":{"city":"New York","name":"The City College of New York","zip":"10031","url":"http://www1.ccny.cuny.edu/","bbl":"1019570200","streetname":"CONVENT AVENUE","housenum":"160","bin":"1084081"},"geometry":{"type":"Point","coordinates":[-73.95026316293709,40.81940116680288]}}]
}